{"meta": {"code": 200, "requestId": "614c9517cba5ad6503d008be"}, "response": {"venues": [{"id": "4cc0c89722ce468808863947", "name": "Monroe Hospital", "location": {"address": "4011 S Monroe Medical Park Blvd", "lat": 39.1206938, "lng": -86.57190659999999, "labeledLatLngs": [{"label": "display", "lat": 39.1206938, "lng": -86.57190659999999}, {"label": "entrance", "lat": 39.120723, "lng": -86.572308}], "postalCode": "47403", "cc": "US", "city": "Bloomington", "state": "IN", "country": "United States", "formattedAddress": ["4011 S Monroe Medical Park Blvd", "Bloomington, IN 47403", "United States"]}, "categories": [{"id": "4bf58dd8d48988d196941735", "name": "Hospital", "pluralName": "Hospitals", "shortName": "Hospital", "icon": {"prefix": "https://ss3.4sqi.net/img/categories_v2/building/medical_", "suffix": ".png"}, "primary": true}], "referralId": "v-1632408855", "hasPerk": false}, {"id": "557987f6498e0b7db8ca7ae1", "name": "Monroe Medical Group", "location": {"address": "3209 W Fullerton Pike", "crossStreet": "Hwy 37", "lat": 39.121549, "lng": -86.57412, "labeledLatLngs": [{"label": "display", "lat": 39.121549, "lng": -86.57412}], "postalCode": "47403", "cc": "US", "city": "Bloomington", "state": "IN", "country": "United States", "formattedAddress": ["3209 W Fullerton Pike (Hwy 37)", "Bloomington, IN 47403", "United States"]}, "categories": [{"id": "4bf58dd8d48988d177941735", "name": "Doctor's Office", "pluralName": "Doctor's Offices", "shortName": "Doctor's Office", "icon": {"prefix": "https://ss3.4sqi.net/img/categories_v2/building/medical_doctorsoffice_", "suffix": ".png"}, "primary": true}], "referralId": "v-1632408855", "hasPerk": false}, {"id": "4dde2420227106a58b842fd5", "name": "Force Fitness & Performance", "location": {"address": "3201 W Fullerton Pike", "lat": 39.12155758130066, "lng": -86.57373457365618, "labeledLatLngs": [{"label": "display", "lat": 39.12155758130066, "lng": -86.57373457365618}], "postalCode": "47403", "cc": "US", "city": "Bloomington", "state": "IN", "country": "United States", "formattedAddress": ["3201 W Fullerton Pike", "Bloomington, IN 47403", "United States"]}, "categories": [{"id": "4bf58dd8d48988d176941735", "name": "Gym", "pluralName": "Gyms", "shortName": "Gym", "icon": {"prefix": "https://ss3.4sqi.net/img/categories_v2/building/gym_", "suffix": ".png"}, "primary": true}], "referralId": "v-1632408855", "hasPerk": false}, {"id": "4ed3004677c8ea62ff351460", "name": "The ScallyWaggin", "location": {"lat": 39.12090611448336, "lng": -86.57246706486414, "labeledLatLngs": [{"label": "display", "lat": 39.12090611448336, "lng": -86.57246706486414}], "postalCode": "47403", "cc": "US", "city": "Bloomington", "state": "IN", "country": "United States", "formattedAddress": ["Bloomington, IN 47403", "United States"]}, "categories": [{"id": "4bf58dd8d48988d1e1931735", "name": "Arcade", "pluralName": "Arcades", "shortName": "Arcade", "icon": {"prefix": "https://ss3.4sqi.net/img/categories_v2/arts_entertainment/arcade_", "suffix": ".png"}, "primary": true}], "referralId": "v-1632408855", "hasPerk": false}, {"id": "4f32be3c19836c91c7f5a3b0", "name": "E-Z-Go", "location": {"address": "2370 W Fullerton Pike", "lat": 39.123576, "lng": -86.573062, "labeledLatLngs": [{"label": "display", "lat": 39.123576, "lng": -86.573062}, {"label": "entrance", "lat": 39.122926, "lng": -86.573233}], "postalCode": "47403", "cc": "US", "city": "Bloomington", "state": "IN", "country": "United States", "formattedAddress": ["2370 W Fullerton Pike", "Bloomington, IN 47403", "United States"]}, "categories": [{"id": "4d4b7105d754a06376d81259", "name": "Nightlife Spot", "pluralName": "Nightlife Spots", "shortName": "Nightlife", "icon": {"prefix": "https://ss3.4sqi.net/img/categories_v2/nightlife/default_", "suffix": ".png"}, "primary": true}], "referralId": "v-1632408855", "hasPerk": false}, {"id": "5842bd3e5a58693fa1ce0d42", "name": "SmartStyle", "location": {"address": "3585 West State Rd 45", "lat": 39.1415373, "lng": -86.57969229999999, "labeledLatLngs": [{"label": "display", "lat": 39.1415373, "lng": -86.57969229999999}], "postalCode": "47403", "cc": "US", "city": "Bloomington", "state": "IN", "country": "United States", "formattedAddress": ["3585 West State Rd 45", "Bloomington, IN 47403", "United States"]}, "categories": [{"id": "4bf58dd8d48988d110951735", "name": "Salon / Barbershop", "pluralName": "Salons / Barbershops", "shortName": "Salon / Barbershop", "icon": {"prefix": "https://ss3.4sqi.net/img/categories_v2/shops/salon_barber_", "suffix": ".png"}, "primary": true}], "referralId": "v-1632408855", "hasPerk": false}, {"id": "5988f15cdec1d67276e61047", "name": "Walmart Photo Center", "location": {"address": "3313 W State Rd 45", "lat": 39.141343, "lng": -86.579988, "labeledLatLngs": [{"label": "display", "lat": 39.141343, "lng": -86.579988}], "postalCode": "47403", "cc": "US", "city": "Bloomington", "state": "IN", "country": "United States", "formattedAddress": ["3313 W State Rd 45", "Bloomington, IN 47403", "United States"]}, "categories": [{"id": "4eb1bdde3b7b55596b4a7490", "name": "Photography Lab", "pluralName": "Photography Labs", "shortName": "Photography Lab", "icon": {"prefix": "https://ss3.4sqi.net/img/categories_v2/shops/photographylab_", "suffix": ".png"}, "primary": true}], "referralId": "v-1632408855", "hasPerk": false}, {"id": "5996c17e491be70d557483b5", "name": "Walmart Grocery Pickup and Delivery", "location": {"address": "3313 W State Rd 45", "lat": 39.1414452, "lng": -86.5800766, "labeledLatLngs": [{"label": "display", "lat": 39.1414452, "lng": -86.5800766}], "postalCode": "47403", "cc": "US", "city": "Bloomington", "state": "IN", "country": "United States", "formattedAddress": ["3313 W State Rd 45", "Bloomington, IN 47403", "United States"]}, "categories": [{"id": "4bf58dd8d48988d118951735", "name": "Grocery Store", "pluralName": "Grocery Stores", "shortName": "Grocery Store", "icon": {"prefix": "https://ss3.4sqi.net/img/categories_v2/shops/food_grocery_", "suffix": ".png"}, "primary": true}], "referralId": "v-1632408855", "hasPerk": false}, {"id": "5992cb4742d8c27f535e2e14", "name": "Walmart Bakery", "location": {"address": "3313 W State Rd 45", "lat": 39.1414452, "lng": -86.5800766, "labeledLatLngs": [{"label": "display", "lat": 39.1414452, "lng": -86.5800766}], "postalCode": "47403", "cc": "US", "city": "Bloomington", "state": "IN", "country": "United States", "formattedAddress": ["3313 W State Rd 45", "Bloomington, IN 47403", "United States"]}, "categories": [{"id": "4bf58dd8d48988d16a941735", "name": "Bakery", "pluralName": "Bakeries", "shortName": "Bakery", "icon": {"prefix": "https://ss3.4sqi.net/img/categories_v2/food/bakery_", "suffix": ".png"}, "primary": true}], "referralId": "v-1632408855", "hasPerk": false}, {"id": "4b831681f964a520d7f630e3", "name": "Walmart Supercenter", "location": {"address": "3313 W State Rd 45", "lat": 39.14201571175921, "lng": -86.57967123880678, "labeledLatLngs": [{"label": "display", "lat": 39.14201571175921, "lng": -86.57967123880678}], "postalCode": "47403", "cc": "US", "city": "Bloomington", "state": "IN", "country": "United States", "formattedAddress": ["3313 W State Rd 45", "Bloomington, IN 47403", "United States"]}, "categories": [{"id": "52f2ab2ebcbc57f1066b8b42", "name": "Big Box Store", "pluralName": "Big Box Stores", "shortName": "Big Box Store", "icon": {"prefix": "https://ss3.4sqi.net/img/categories_v2/shops/default_", "suffix": ".png"}, "primary": true}], "referralId": "v-1632408855", "hasPerk": false}, {"id": "5357d213498e2c52bab4f8e1", "name": "Aim To Please Plumbing & Electric", "location": {"address": "3660 S Leonard Springs Rd", "lat": 39.12671461701393, "lng": -86.58263772726059, "labeledLatLngs": [{"label": "display", "lat": 39.12671461701393, "lng": -86.58263772726059}], "postalCode": "47403", "cc": "US", "city": "Bloomington", "state": "IN", "country": "United States", "formattedAddress": ["3660 S Leonard Springs Rd", "Bloomington, IN 47403", "United States"]}, "categories": [{"id": "4bf58dd8d48988d124941735", "name": "Office", "pluralName": "Offices", "shortName": "Office", "icon": {"prefix": "https://ss3.4sqi.net/img/categories_v2/building/default_", "suffix": ".png"}, "primary": true}], "referralId": "v-1632408855", "hasPerk": false}, {"id": "4c63423786b6be9a9a3f8e34", "name": "Moore Estate", "location": {"address": "5413-5499 S Farmers Dr", "lat": 39.10249495, "lng": -86.56747586666667, "labeledLatLngs": [{"label": "display", "lat": 39.10249495, "lng": -86.56747586666667}], "postalCode": "47403", "cc": "US", "city": "Bloomington", "state": "IN", "country": "United States", "formattedAddress": ["5413-5499 S Farmers Dr", "Bloomington, IN 47403", "United States"]}, "categories": [], "referralId": "v-1632408855", "hasPerk": false}, {"id": "4cb83ff79552b60c09cbca8b", "name": "Best in Bloomington Care", "location": {"address": "Yonkers", "lat": 39.136804, "lng": -86.575059, "labeledLatLngs": [{"label": "display", "lat": 39.136804, "lng": -86.575059}], "cc": "US", "city": "Bloomington", "state": "IN", "country": "United States", "formattedAddress": ["Yonkers", "Bloomington, IN", "United States"]}, "categories": [{"id": "4bf58dd8d48988d1a0941735", "name": "College Classroom", "pluralName": "College Classrooms", "shortName": "Classroom", "icon": {"prefix": "https://ss3.4sqi.net/img/categories_v2/education/classroom_", "suffix": ".png"}, "primary": true}], "referralId": "v-1632408855", "hasPerk": false}, {"id": "4e7b38d91f6ebc9a039fa6b8", "name": "ENT Associates of Southern Indiana", "location": {"address": "2929 S McIntire Dr Ste 350", "lat": 39.135107, "lng": -86.570964, "labeledLatLngs": [{"label": "display", "lat": 39.135107, "lng": -86.570964}, {"label": "entrance", "lat": 39.135074, "lng": -86.570789}], "postalCode": "47403", "cc": "US", "city": "Bloomington", "state": "IN", "country": "United States", "formattedAddress": ["2929 S McIntire Dr Ste 350", "Bloomington, IN 47403", "United States"]}, "categories": [{"id": "4bf58dd8d48988d104941735", "name": "Medical Center", "pluralName": "Medical Centers", "shortName": "Medical", "icon": {"prefix": "https://ss3.4sqi.net/img/categories_v2/building/medical_", "suffix": ".png"}, "primary": true}], "referralId": "v-1632408855", "hasPerk": false}, {"id": "4ef9f1fa9adf7bbf8ac8629f", "name": "Woodforest", "location": {"address": "3313 Indiana 45, Bloomington, IN 47403", "lat": 39.14201845382166, "lng": -86.57939038434844, "labeledLatLngs": [{"label": "display", "lat": 39.14201845382166, "lng": -86.57939038434844}], "postalCode": "47403", "cc": "US", "city": "Bloomington", "state": "IN", "country": "United States", "formattedAddress": ["3313 Indiana 45, Bloomington, IN 47403", "Bloomington, IN 47403", "United States"]}, "categories": [{"id": "4bf58dd8d48988d10a951735", "name": "Bank", "pluralName": "Banks", "shortName": "Bank", "icon": {"prefix": "https://ss3.4sqi.net/img/categories_v2/shops/financial_", "suffix": ".png"}, "primary": true}], "referralId": "v-1632408855", "hasPerk": false}, {"id": "4b815e60f964a520eea130e3", "name": "Clear Creek Trail", "location": {"lat": 39.135205860189984, "lng": -86.57599044088695, "labeledLatLngs": [{"label": "display", "lat": 39.135205860189984, "lng": -86.57599044088695}], "cc": "US", "city": "Bloomington", "state": "IN", "country": "United States", "formattedAddress": ["Bloomington, IN", "United States"]}, "categories": [{"id": "4bf58dd8d48988d159941735", "name": "Trail", "pluralName": "Trails", "shortName": "Trail", "icon": {"prefix": "https://ss3.4sqi.net/img/categories_v2/parks_outdoors/hikingtrail_", "suffix": ".png"}, "primary": true}], "referralId": "v-1632408855", "hasPerk": false}, {"id": "4d8f4eaf1d06b1f7d3db5b3b", "name": "Cornerstone Christian Fellowship", "location": {"lat": 39.12597, "lng": -86.54865, "labeledLatLngs": [{"label": "display", "lat": 39.12597, "lng": -86.54865}], "cc": "US", "city": "Bloomington", "state": "IN", "country": "United States", "formattedAddress": ["Bloomington, IN", "United States"]}, "categories": [], "referralId": "v-1632408855", "hasPerk": false}, {"id": "4cfa5bf0c51fa1cdba30e02b", "name": "Cedar Chase Habitat Site", "location": {"lat": 39.13097645059798, "lng": -86.58487064846975, "labeledLatLngs": [{"label": "display", "lat": 39.13097645059798, "lng": -86.58487064846975}], "postalCode": "47403", "cc": "US", "city": "Bloomington", "state": "IN", "country": "United States", "formattedAddress": ["Bloomington, IN 47403", "United States"]}, "categories": [], "referralId": "v-1632408855", "hasPerk": false}, {"id": "4ea72b569a526de96a339a86", "name": "I-69 Tier 2", "location": {"address": "3802 W Industrial Blvd", "crossStreet": "45", "lat": 39.143802642822266, "lng": -86.58032989501953, "labeledLatLngs": [{"label": "display", "lat": 39.143802642822266, "lng": -86.58032989501953}], "postalCode": "47403", "cc": "US", "city": "Bloomington", "state": "IN", "country": "United States", "formattedAddress": ["3802 W Industrial Blvd (45)", "Bloomington, IN 47403", "United States"]}, "categories": [{"id": "4bf58dd8d48988d126941735", "name": "Government Building", "pluralName": "Government Buildings", "shortName": "Government", "icon": {"prefix": "https://ss3.4sqi.net/img/categories_v2/building/government_", "suffix": ".png"}, "primary": true}], "referralId": "v-1632408855", "hasPerk": false}, {"id": "528f804611d274b8c47c908c", "name": "cassady electric", "location": {"address": "2200 W Tapp Rd", "lat": 39.140235900878906, "lng": -86.55908966064453, "labeledLatLngs": [{"label": "display", "lat": 39.140235900878906, "lng": -86.55908966064453}], "postalCode": "47403", "cc": "US", "city": "Bloomington", "state": "IN", "country": "United States", "formattedAddress": ["2200 W Tapp Rd", "Bloomington, IN 47403", "United States"]}, "categories": [{"id": "4bf58dd8d48988d124941735", "name": "Office", "pluralName": "Offices", "shortName": "Office", "icon": {"prefix": "https://ss3.4sqi.net/img/categories_v2/building/default_", "suffix": ".png"}, "primary": true}], "referralId": "v-1632408855", "hasPerk": false}, {"id": "4f8f45b3e4b01d8f6d27e15a", "name": "The Highlands", "location": {"lat": 39.1259599304496, "lng": -86.55255405184599, "labeledLatLngs": [{"label": "display", "lat": 39.1259599304496, "lng": -86.55255405184599}], "postalCode": "47403", "cc": "US", "city": "Bloomington", "state": "IN", "country": "United States", "formattedAddress": ["Bloomington, IN 47403", "United States"]}, "categories": [{"id": "4f2a210c4b9023bd5841ed28", "name": "Housing Development", "pluralName": "Housing Developments", "shortName": "Housing Development", "icon": {"prefix": "https://ss3.4sqi.net/img/categories_v2/building/housingdevelopment_", "suffix": ".png"}, "primary": true}], "referralId": "v-1632408855", "hasPerk": false}, {"id": "4d268327342d6dcb8e7fe4ca", "name": "Adams Village", "location": {"address": "2730 S Adams St", "lat": 39.138054314967015, "lng": -86.55745684590609, "labeledLatLngs": [{"label": "display", "lat": 39.138054314967015, "lng": -86.55745684590609}], "postalCode": "47403", "cc": "US", "city": "Bloomington", "state": "IN", "country": "United States", "formattedAddress": ["2730 S Adams St", "Bloomington, IN 47403", "United States"]}, "categories": [{"id": "4d954b06a243a5684965b473", "name": "Residential Building (Apartment / Condo)", "pluralName": "Residential Buildings (Apartments / Condos)", "shortName": "Residential", "icon": {"prefix": "https://ss3.4sqi.net/img/categories_v2/building/apartment_", "suffix": ".png"}, "primary": true}], "referralId": "v-1632408855", "hasPerk": false}, {"id": "4ce6eca5e888f04d31f0386b", "name": "Faulkner chiropractic", "location": {"crossStreet": "sudburry dr", "lat": 39.142078, "lng": -86.563136, "labeledLatLngs": [{"label": "display", "lat": 39.142078, "lng": -86.563136}], "postalCode": "47403", "cc": "US", "city": "Bloomington", "state": "IN", "country": "United States", "formattedAddress": ["Bloomington, IN 47403", "United States"]}, "categories": [{"id": "52e81612bcbc57f1066b7a3a", "name": "Chiropractor", "pluralName": "Chiropractors", "shortName": "Chiropractors", "icon": {"prefix": "https://ss3.4sqi.net/img/categories_v2/building/medical_doctorsoffice_", "suffix": ".png"}, "primary": true}], "referralId": "v-1632408855", "hasPerk": false}, {"id": "4f70ade1e4b0269b4a21a727", "name": "Walmart Vision & Glasses", "location": {"address": "3313 W State Rd 45", "lat": 39.14182229284533, "lng": -86.58003092727816, "labeledLatLngs": [{"label": "display", "lat": 39.14182229284533, "lng": -86.58003092727816}], "postalCode": "47403", "cc": "US", "city": "Bloomington", "state": "IN", "country": "United States", "formattedAddress": ["3313 W State Rd 45", "Bloomington, IN 47403", "United States"]}, "categories": [{"id": "4d954afda243a5684865b473", "name": "Optical Shop", "pluralName": "Optical Shops", "shortName": "Optical", "icon": {"prefix": "https://ss3.4sqi.net/img/categories_v2/building/medical_opticalshop_", "suffix": ".png"}, "primary": true}], "referralId": "v-1632408855", "hasPerk": false}, {"id": "4f871405e4b0ab5c85c6cc10", "name": "RAMC", "location": {"address": "210 Indiana 43, Spencer, IN 47460", "lat": 39.12433957210819, "lng": -86.57810927363467, "labeledLatLngs": [{"label": "display", "lat": 39.12433957210819, "lng": -86.57810927363467}], "postalCode": "47460", "cc": "US", "city": "Spencer", "state": "IN", "country": "United States", "formattedAddress": ["210 Indiana 43, Spencer, IN 47460", "Spencer, IN 47460", "United States"]}, "categories": [{"id": "4bf58dd8d48988d104941735", "name": "Medical Center", "pluralName": "Medical Centers", "shortName": "Medical", "icon": {"prefix": "https://ss3.4sqi.net/img/categories_v2/building/medical_", "suffix": ".png"}, "primary": true}], "referralId": "v-1632408855", "hasPerk": false}, {"id": "5bfce38c1de765002c620c4f", "name": "MyEyeDr.", "location": {"address": "2901 S McIntire Dr", "lat": 39.135410643784425, "lng": -86.5695777901783, "labeledLatLngs": [{"label": "display", "lat": 39.135410643784425, "lng": -86.5695777901783}], "postalCode": "47403", "cc": "US", "city": "Bloomington", "state": "IN", "country": "United States", "formattedAddress": ["2901 S McIntire Dr", "Bloomington, IN 47403", "United States"]}, "categories": [{"id": "4bf58dd8d48988d177941735", "name": "Doctor's Office", "pluralName": "Doctor's Offices", "shortName": "Doctor's Office", "icon": {"prefix": "https://ss3.4sqi.net/img/categories_v2/building/medical_doctorsoffice_", "suffix": ".png"}, "primary": true}], "referralId": "v-1632408855", "hasPerk": false}, {"id": "4c7eeb8ad860b60c99805f9d", "name": "SUBWAY", "location": {"address": "3113 West State Road 45", "crossStreet": "in Walmart", "lat": 39.14165425680549, "lng": -86.57976485652314, "labeledLatLngs": [{"label": "display", "lat": 39.14165425680549, "lng": -86.57976485652314}], "postalCode": "47403", "cc": "US", "city": "Bloomington", "state": "IN", "country": "United States", "formattedAddress": ["3113 West State Road 45 (in Walmart)", "Bloomington, IN 47403", "United States"]}, "categories": [{"id": "4bf58dd8d48988d1c5941735", "name": "Sandwich Place", "pluralName": "Sandwich Places", "shortName": "Sandwiches", "icon": {"prefix": "https://ss3.4sqi.net/img/categories_v2/food/deli_", "suffix": ".png"}, "primary": true}], "delivery": {"id": "2725113", "url": "https://www.grubhub.com/restaurant/subway-3313-indiana-45-bloomington/2725113?affiliate=1131&utm_source=foursquare-affiliate-network&utm_medium=affiliate&utm_campaign=1131&utm_content=2725113", "provider": {"name": "grubhub", "icon": {"prefix": "https://fastly.4sqi.net/img/general/cap/", "sizes": [40, 50], "name": "/delivery_provider_grubhub_20180129.png"}}}, "referralId": "v-1632408855", "hasPerk": false}, {"id": "4e047d95d4c06844661a2f90", "name": "World Wide Automotive", "location": {"address": "2661 W Schmalz Boulevard", "lat": 39.13716444, "lng": -86.56938371, "labeledLatLngs": [{"label": "display", "lat": 39.13716444, "lng": -86.56938371}, {"label": "entrance", "lat": 39.137299, "lng": -86.569339}], "postalCode": "47403", "cc": "US", "city": "Bloomington", "state": "IN", "country": "United States", "formattedAddress": ["2661 W Schmalz Boulevard", "Bloomington, IN 47403", "United States"]}, "categories": [{"id": "4bf58dd8d48988d124951735", "name": "Automotive Shop", "pluralName": "Automotive Shops", "shortName": "Automotive", "icon": {"prefix": "https://ss3.4sqi.net/img/categories_v2/shops/automotive_", "suffix": ".png"}, "primary": true}], "referralId": "v-1632408855", "hasPerk": false}, {"id": "4c3766c9dfb0e21e3bb5aca8", "name": "Fogerty Music Therapy", "location": {"address": "Edinburgh Bend", "lat": 39.123566, "lng": -86.550653, "labeledLatLngs": [{"label": "display", "lat": 39.123566, "lng": -86.550653}], "cc": "US", "city": "Bloomington", "state": "IN", "country": "United States", "formattedAddress": ["Edinburgh Bend", "Bloomington, IN", "United States"]}, "categories": [{"id": "4bf58dd8d48988d1fe941735", "name": "Music Store", "pluralName": "Music Stores", "shortName": "Music Store", "icon": {"prefix": "https://ss3.4sqi.net/img/categories_v2/shops/music_instruments_", "suffix": ".png"}, "primary": true}], "referralId": "v-1632408855", "hasPerk": false}, {"id": "4c9bb060e9a7ef3b60c72e16", "name": "Poplar Hill", "location": {"address": "S. Danlyn Rd", "crossStreet": "at Tapp Rd", "lat": 39.13853326827382, "lng": -86.57585739487631, "labeledLatLngs": [{"label": "display", "lat": 39.13853326827382, "lng": -86.57585739487631}], "postalCode": "47403", "cc": "US", "city": "Bloomington", "state": "IN", "country": "United States", "formattedAddress": ["S. Danlyn Rd (at Tapp Rd)", "Bloomington, IN 47403", "United States"]}, "categories": [{"id": "4f2a210c4b9023bd5841ed28", "name": "Housing Development", "pluralName": "Housing Developments", "shortName": "Housing Development", "icon": {"prefix": "https://ss3.4sqi.net/img/categories_v2/building/housingdevelopment_", "suffix": ".png"}, "primary": true}], "referralId": "v-1632408855", "hasPerk": false}], "confident": false, "geocode": {"what": "", "where": "39.122352,-86.5712", "feature": {"cc": "US"}, "parents": []}}}