{"meta": {"code": 200, "requestId": "614c8beae41f3c7d16ea85fe"}, "response": {"venues": [{"id": "4bd7774f5cf276b02e629b00", "name": "Nino D'Aversa Bakery Ltd", "location": {"address": "7960 Kipling Ave", "crossStreet": "Woodbridge Ave", "lat": 43.783782143033285, "lng": -79.59882808794286, "labeledLatLngs": [{"label": "display", "lat": 43.783782143033285, "lng": -79.59882808794286}], "postalCode": "L4L 1Z9", "cc": "CA", "city": "Woodbridge", "state": "ON", "country": "Canada", "formattedAddress": ["7960 Kipling Ave (Woodbridge Ave)", "Woodbridge ON L4L 1Z9", "Canada"]}, "categories": [{"id": "4bf58dd8d48988d16a941735", "name": "Bakery", "pluralName": "Bakeries", "shortName": "Bakery", "icon": {"prefix": "https://ss3.4sqi.net/img/categories_v2/food/bakery_", "suffix": ".png"}, "primary": true}], "referralId": "v-1632406506", "hasPerk": false}, {"id": "4d83c038f9f3a1cd2d61a764", "name": "Woodbridge Kipling", "location": {"lat": 43.783185997359546, "lng": -79.59790801669871, "labeledLatLngs": [{"label": "display", "lat": 43.783185997359546, "lng": -79.59790801669871}], "cc": "CA", "country": "Canada", "formattedAddress": ["Canada"]}, "categories": [{"id": "4bf58dd8d48988d130941735", "name": "Building", "pluralName": "Buildings", "shortName": "Building", "icon": {"prefix": "https://ss3.4sqi.net/img/categories_v2/building/default_", "suffix": ".png"}, "primary": true}], "referralId": "v-1632406506", "hasPerk": false}, {"id": "4b09433ff964a520091523e3", "name": "St. Peter's Catholic Church", "location": {"address": "100 Bainbridge Ave", "crossStreet": "at Martin Grove Rd.", "lat": 43.78517877823238, "lng": -79.61024798186821, "labeledLatLngs": [{"label": "display", "lat": 43.78517877823238, "lng": -79.61024798186821}], "postalCode": "L4L 3Y1", "cc": "CA", "city": "Woodbridge", "state": "ON", "country": "Canada", "formattedAddress": ["100 Bainbridge Ave (at Martin Grove Rd.)", "Woodbridge ON L4L 3Y1", "Canada"]}, "categories": [{"id": "4bf58dd8d48988d132941735", "name": "Church", "pluralName": "Churches", "shortName": "Church", "icon": {"prefix": "https://ss3.4sqi.net/img/categories_v2/building/religious_church_", "suffix": ".png"}, "primary": true}], "referralId": "v-1632406506", "hasPerk": false}, {"id": "4bd8da8a0115c9b6a3a27580", "name": "Kaits", "location": {"address": "8026 Kipling", "lat": 43.785515, "lng": -79.598996, "labeledLatLngs": [{"label": "display", "lat": 43.785515, "lng": -79.598996}], "cc": "CA", "city": "York Regional Municipality", "state": "ON", "country": "Canada", "formattedAddress": ["8026 Kipling", "York Regional Municipality ON", "Canada"]}, "categories": [], "referralId": "v-1632406506", "hasPerk": false}, {"id": "4d37380ae4b4a093c4292b36", "name": "Market Lane Animal Hospital", "location": {"address": "2CL-140 Woodbridge Ave", "lat": 43.784785, "lng": -79.593086, "labeledLatLngs": [{"label": "display", "lat": 43.784785, "lng": -79.593086}], "postalCode": "L4L 4K9", "cc": "CA", "city": "Woodbridge", "state": "ON", "country": "Canada", "formattedAddress": ["2CL-140 Woodbridge Ave", "Woodbridge ON L4L 4K9", "Canada"]}, "categories": [{"id": "4d954af4a243a5684765b473", "name": "Veterinarian", "pluralName": "Veterinarians", "shortName": "Veterinarians", "icon": {"prefix": "https://ss3.4sqi.net/img/categories_v2/building/medical_veterinarian_", "suffix": ".png"}, "primary": true}], "referralId": "v-1632406506", "hasPerk": false}, {"id": "4cc0e64443646dcb2f12428c", "name": "Tim Hortons", "location": {"address": "3764 Hwy 7", "lat": 43.7896232, "lng": -79.5481134, "labeledLatLngs": [{"label": "display", "lat": 43.7896232, "lng": -79.5481134}], "postalCode": "L4L 1A6", "cc": "CA", "city": "Woodbridge", "state": "ON", "country": "Canada", "formattedAddress": ["3764 Hwy 7", "Woodbridge ON L4L 1A6", "Canada"]}, "categories": [{"id": "4bf58dd8d48988d1e0931735", "name": "Coffee Shop", "pluralName": "Coffee Shops", "shortName": "Coffee Shop", "icon": {"prefix": "https://ss3.4sqi.net/img/categories_v2/food/coffeeshop_", "suffix": ".png"}, "primary": true}], "referralId": "v-1632406506", "hasPerk": false}, {"id": "5a5022cb6adbf56033885646", "name": "La Torteria", "location": {"address": "3-350 Woodbridge Ave", "crossStreet": "Woodbridge Ave & Kipling Ave", "lat": 43.784043, "lng": -79.600419, "labeledLatLngs": [{"label": "display", "lat": 43.784043, "lng": -79.600419}], "postalCode": "L4L 3K8", "cc": "CA", "city": "Vaughan", "state": "ON", "country": "Canada", "formattedAddress": ["3-350 Woodbridge Ave (Woodbridge Ave & Kipling Ave)", "Vaughan ON L4L 3K8", "Canada"]}, "categories": [{"id": "4bf58dd8d48988d1c1941735", "name": "Mexican Restaurant", "pluralName": "Mexican Restaurants", "shortName": "Mexican", "icon": {"prefix": "https://ss3.4sqi.net/img/categories_v2/food/mexican_", "suffix": ".png"}, "primary": true}], "referralId": "v-1632406506", "hasPerk": false}, {"id": "5a1c40fa446ea61310ad2925", "name": "Hertz", "location": {"address": "5317 Highway 7 West, Unit 3", "lat": 43.778088, "lng": -79.59948, "labeledLatLngs": [{"label": "display", "lat": 43.778088, "lng": -79.59948}], "postalCode": "L4L 1T4", "cc": "CA", "city": "Woodbridge", "state": "ON", "country": "Canada", "formattedAddress": ["5317 Highway 7 West, Unit 3", "Woodbridge ON L4L 1T4", "Canada"]}, "categories": [{"id": "4bf58dd8d48988d1ef941735", "name": "Rental Car Location", "pluralName": "Rental Car Locations", "shortName": "Rental Car", "icon": {"prefix": "https://ss3.4sqi.net/img/categories_v2/shops/airport_rentalcar_", "suffix": ".png"}, "primary": true}], "venuePage": {"id": "596194507"}, "referralId": "v-1632406506", "hasPerk": false}, {"id": "60c3a8876584ad7b2133d1ec", "name": "Permier Tire", "location": {"address": "5274 Highway 7", "lat": 43.7787657, "lng": -79.598223, "labeledLatLngs": [{"label": "display", "lat": 43.7787657, "lng": -79.598223}], "postalCode": "L4L 1T3", "cc": "CA", "city": "Woodbridge", "state": "ON", "country": "Canada", "formattedAddress": ["5274 Highway 7", "Woodbridge ON L4L 1T3", "Canada"]}, "categories": [{"id": "4bf58dd8d48988d124951735", "name": "Automotive Shop", "pluralName": "Automotive Shops", "shortName": "Automotive", "icon": {"prefix": "https://ss3.4sqi.net/img/categories_v2/shops/automotive_", "suffix": ".png"}, "primary": true}], "referralId": "v-1632406506", "hasPerk": false}, {"id": "5058851d011cf8bd59b29c39", "name": "Budget blinds of woodbridge", "location": {"address": "186 Denise Circle", "lat": 43.78488258669457, "lng": -79.59472417831421, "labeledLatLngs": [{"label": "display", "lat": 43.78488258669457, "lng": -79.59472417831421}], "postalCode": "L4l 9a8", "cc": "CA", "city": "Woodbridge", "state": "ON", "country": "Canada", "formattedAddress": ["186 Denise Circle", "Woodbridge ON L4l 9a8", "Canada"]}, "categories": [{"id": "4bf58dd8d48988d1f8941735", "name": "Furniture / Home Store", "pluralName": "Furniture / Home Stores", "shortName": "Furniture / Home", "icon": {"prefix": "https://ss3.4sqi.net/img/categories_v2/shops/furniture_", "suffix": ".png"}, "primary": true}], "referralId": "v-1632406506", "hasPerk": false}], "confident": false, "geocode": {"what": "", "where": "woodbridge ontario", "feature": {"cc": "CA", "name": "Woodbridge", "displayName": "Woodbridge, ON, Canada", "matchedName": "Woodbridge, Ontario, Canada", "highlightedName": "<b>Woodbridge</b>, <b>Ontario</b>, Canada", "woeType": 7, "id": "geonameid:6184009", "longId": "72057594044111945", "geometry": {"center": {"lat": 43.78341, "lng": -79.59962}, "bounds": {"ne": {"lat": 43.83445, "lng": -79.518745}, "sw": {"lat": 43.723, "lng": -79.683754}}}}, "parents": []}}}