{"businesses": [{"id": "NrhWoZ1c_GqC-UjPKzSTUQ", "alias": "da-vinci-banquet-halls-woodbridge", "name": "Da Vinci Banquet Halls", "image_url": "https://s3-media3.fl.yelpcdn.com/bphoto/CN9Vr4nIw7Ae28AFgPrW9g/o.jpg", "is_closed": false, "url": "https://www.yelp.com/biz/da-vinci-banquet-halls-woodbridge?adjust_creative=KQ8EiN71xGv5H_kmPWQLiw&utm_campaign=yelp_api_v3&utm_medium=api_v3_business_search&utm_source=KQ8EiN71xGv5H_kmPWQLiw", "review_count": 3, "categories": [{"alias": "venues", "title": "Venues & Event Spaces"}], "rating": 1.0, "coordinates": {"latitude": 43.7775922, "longitude": -79.6132743}, "transactions": [], "location": {"address1": "5732 Highway 7", "address2": "Unit 33", "address3": "", "city": "Woodbridge", "zip_code": "L4L 3A2", "country": "CA", "state": "ON", "display_address": ["5732 Highway 7", "Unit 33", "Woodbridge, ON L4L 3A2", "Canada"]}, "phone": "+19058513131", "display_phone": "+1 905-851-3131", "distance": 829.8579452840975}, {"id": "grnvXClj73ufsaG8VDKXWQ", "alias": "ch\u00e2teau-le-jardin-woodbridge", "name": "Ch\u00e2teau Le Jardin", "image_url": "https://s3-media1.fl.yelpcdn.com/bphoto/QKjfh-nK4i1c-6vgj5cmEA/o.jpg", "is_closed": false, "url": "https://www.yelp.com/biz/ch%C3%A2teau-le-jardin-woodbridge?adjust_creative=KQ8EiN71xGv5H_kmPWQLiw&utm_campaign=yelp_api_v3&utm_medium=api_v3_business_search&utm_source=KQ8EiN71xGv5H_kmPWQLiw", "review_count": 22, "categories": [{"alias": "venues", "title": "Venues & Event Spaces"}], "rating": 4.0, "coordinates": {"latitude": 43.7895515, "longitude": -79.62667876}, "transactions": [], "location": {"address1": "8440 Highway 27", "address2": "", "address3": "", "city": "Woodbridge", "zip_code": "L4L 1A5", "country": "CA", "state": "ON", "display_address": ["8440 Highway 27", "Woodbridge, ON L4L 1A5", "Canada"]}, "phone": "+19058512200", "display_phone": "+1 905-851-2200", "distance": 1302.7819918989237}, {"id": "45TBoctzPi31IIBkf-gghA", "alias": "the-arlington-estate-vaughan", "name": "The Arlington Estate", "image_url": "https://s3-media3.fl.yelpcdn.com/bphoto/ENxS_0UJKO9zUioj2vixcw/o.jpg", "is_closed": false, "url": "https://www.yelp.com/biz/the-arlington-estate-vaughan?adjust_creative=KQ8EiN71xGv5H_kmPWQLiw&utm_campaign=yelp_api_v3&utm_medium=api_v3_business_search&utm_source=KQ8EiN71xGv5H_kmPWQLiw", "review_count": 1, "categories": [{"alias": "venues", "title": "Venues & Event Spaces"}], "rating": 5.0, "coordinates": {"latitude": 43.79658, "longitude": -79.65455}, "transactions": [], "location": {"address1": "8934 Huntington Road", "address2": "", "address3": null, "city": "Vaughan", "zip_code": "L4H 4X1", "country": "CA", "state": "ON", "display_address": ["8934 Huntington Road", "Vaughan, ON L4H 4X1", "Canada"]}, "phone": "+16474298934", "display_phone": "+1 647-429-8934", "distance": 3683.5492565784407}, {"id": "A4ncQUfFS2CEiaj9cMvsgg", "alias": "digital-x-entertainment-woodbridge", "name": "Digital X Entertainment", "image_url": "https://s3-media3.fl.yelpcdn.com/bphoto/uXCOlxjTGyOKZLRtlX_Opw/o.jpg", "is_closed": false, "url": "https://www.yelp.com/biz/digital-x-entertainment-woodbridge?adjust_creative=KQ8EiN71xGv5H_kmPWQLiw&utm_campaign=yelp_api_v3&utm_medium=api_v3_business_search&utm_source=KQ8EiN71xGv5H_kmPWQLiw", "review_count": 3, "categories": [{"alias": "djs", "title": "DJs"}, {"alias": "photoboothrentals", "title": "Photo Booth Rentals"}], "rating": 3.5, "coordinates": {"latitude": 43.7760604, "longitude": -79.6282516}, "transactions": [], "location": {"address1": "111 Zenway Boulevard", "address2": "Unit 26", "address3": "", "city": "Woodbridge", "zip_code": "L4H 3H9", "country": "CA", "state": "ON", "display_address": ["111 Zenway Boulevard", "Unit 26", "Woodbridge, ON L4H 3H9", "Canada"]}, "phone": "+19056059368", "display_phone": "+1 905-605-9368", "distance": 1684.2801086576185}, {"id": "41xuKlIuZTLu6qTbpqTY-A", "alias": "the-jewel-event-centre-woodbridge", "name": "The Jewel Event Centre", "image_url": "https://s3-media1.fl.yelpcdn.com/bphoto/MniS0PTatG77htkzieiJPw/o.jpg", "is_closed": false, "url": "https://www.yelp.com/biz/the-jewel-event-centre-woodbridge?adjust_creative=KQ8EiN71xGv5H_kmPWQLiw&utm_campaign=yelp_api_v3&utm_medium=api_v3_business_search&utm_source=KQ8EiN71xGv5H_kmPWQLiw", "review_count": 4, "categories": [{"alias": "venues", "title": "Venues & Event Spaces"}, {"alias": "catering", "title": "Caterers"}, {"alias": "eventplanning", "title": "Party & Event Planning"}], "rating": 5.0, "coordinates": {"latitude": 43.77049, "longitude": -79.60881}, "transactions": [], "location": {"address1": "55 Sovereign Court", "address2": "", "address3": "", "city": "Woodbridge", "zip_code": "L4L 8M1", "country": "CA", "state": "ON", "display_address": ["55 Sovereign Court", "Woodbridge, ON L4L 8M1", "Canada"]}, "phone": "+19052650919", "display_phone": "+1 905-265-0919", "distance": 1618.425207464314}, {"id": "GX7QcRoh93_fq1D_nt2WhQ", "alias": "universal-event-space-vaughan-2", "name": "Universal Event Space", "image_url": "https://s3-media1.fl.yelpcdn.com/bphoto/KfquK9-YazXWKvxHcVR8wA/o.jpg", "is_closed": false, "url": "https://www.yelp.com/biz/universal-event-space-vaughan-2?adjust_creative=KQ8EiN71xGv5H_kmPWQLiw&utm_campaign=yelp_api_v3&utm_medium=api_v3_business_search&utm_source=KQ8EiN71xGv5H_kmPWQLiw", "review_count": 7, "categories": [{"alias": "venues", "title": "Venues & Event Spaces"}], "rating": 4.0, "coordinates": {"latitude": 43.775107, "longitude": -79.625539}, "transactions": [], "location": {"address1": "6250 Highway 7 W", "address2": null, "address3": null, "city": "Vaughan", "zip_code": "L4H 4G3", "country": "CA", "state": "ON", "display_address": ["6250 Highway 7 W", "Vaughan, ON L4H 4G3", "Canada"]}, "phone": "+19053268100", "display_phone": "+1 905-326-8100", "distance": 1559.0629782005326}, {"id": "41gRLv6cCcllPGDLyrqpVA", "alias": "embassy-grand-convention-centre-brampton", "name": "Embassy Grand Convention Centre", "image_url": "https://s3-media2.fl.yelpcdn.com/bphoto/kq_4blziQ34QtyKw4ebCLQ/o.jpg", "is_closed": false, "url": "https://www.yelp.com/biz/embassy-grand-convention-centre-brampton?adjust_creative=KQ8EiN71xGv5H_kmPWQLiw&utm_campaign=yelp_api_v3&utm_medium=api_v3_business_search&utm_source=KQ8EiN71xGv5H_kmPWQLiw", "review_count": 5, "categories": [{"alias": "venues", "title": "Venues & Event Spaces"}, {"alias": "eventplanning", "title": "Party & Event Planning"}], "rating": 3.5, "coordinates": {"latitude": 43.76782, "longitude": -79.65898}, "transactions": [], "location": {"address1": "8800 The Gore Road", "address2": "", "address3": "", "city": "Brampton", "zip_code": "L6P 0B1", "country": "CA", "state": "ON", "display_address": ["8800 The Gore Road", "Brampton, ON L6P 0B1", "Canada"]}, "phone": "+19057949588", "display_phone": "+1 905-794-9588", "distance": 4228.211903212155}, {"id": "w-N_m3UYObBXXGXgZTvmTg", "alias": "kreative-treasures-toronto", "name": "Kreative Treasures", "image_url": "https://s3-media3.fl.yelpcdn.com/bphoto/rRhPzpzqp56M8OlNQQYU6w/o.jpg", "is_closed": false, "url": "https://www.yelp.com/biz/kreative-treasures-toronto?adjust_creative=KQ8EiN71xGv5H_kmPWQLiw&utm_campaign=yelp_api_v3&utm_medium=api_v3_business_search&utm_source=KQ8EiN71xGv5H_kmPWQLiw", "review_count": 1, "categories": [{"alias": "eventplanning", "title": "Party & Event Planning"}, {"alias": "wedding_planning", "title": "Wedding Planning"}], "rating": 5.0, "coordinates": {"latitude": 43.77744, "longitude": -79.49358}, "transactions": [], "location": {"address1": "4801 Keele Street", "address2": "Unit 20", "address3": "", "city": "Toronto", "zip_code": "M3J 3A4", "country": "CA", "state": "ON", "display_address": ["4801 Keele Street", "Unit 20", "Toronto, ON M3J 3A4", "Canada"]}, "phone": "+18886901873", "display_phone": "+1 888-690-1873", "distance": 9538.413727933952}, {"id": "5frOJEtIhJNqOCd5inLUzw", "alias": "hampton-inn-by-hilton-brampton-toronto-brampton", "name": "Hampton Inn by Hilton Brampton Toronto", "image_url": "https://s3-media4.fl.yelpcdn.com/bphoto/3ZkmojVUKgoLIb_-Z4hQMw/o.jpg", "is_closed": false, "url": "https://www.yelp.com/biz/hampton-inn-by-hilton-brampton-toronto-brampton?adjust_creative=KQ8EiN71xGv5H_kmPWQLiw&utm_campaign=yelp_api_v3&utm_medium=api_v3_business_search&utm_source=KQ8EiN71xGv5H_kmPWQLiw", "review_count": 13, "categories": [{"alias": "hotels", "title": "Hotels"}], "rating": 4.0, "coordinates": {"latitude": 43.7659259, "longitude": -79.6598533}, "transactions": [], "price": "$$", "location": {"address1": "8710 The Gore Road", "address2": "", "address3": "", "city": "Brampton", "zip_code": "L6P 0B1", "country": "CA", "state": "ON", "display_address": ["8710 The Gore Road", "Brampton, ON L6P 0B1", "Canada"]}, "phone": "+19054884888", "display_phone": "+1 905-488-4888", "distance": 4405.443985463609}, {"id": "Q9yjRZFfILATrDc9ukxzZQ", "alias": "al-fogolar-vaughan", "name": "Al Fogolar", "image_url": "https://s3-media2.fl.yelpcdn.com/bphoto/L73QBkqVEmz1eU7gEAGRRg/o.jpg", "is_closed": false, "url": "https://www.yelp.com/biz/al-fogolar-vaughan?adjust_creative=KQ8EiN71xGv5H_kmPWQLiw&utm_campaign=yelp_api_v3&utm_medium=api_v3_business_search&utm_source=KQ8EiN71xGv5H_kmPWQLiw", "review_count": 3, "categories": [{"alias": "venues", "title": "Venues & Event Spaces"}, {"alias": "italian", "title": "Italian"}], "rating": 4.5, "coordinates": {"latitude": 43.76614, "longitude": -79.5751}, "transactions": [], "price": "$$$", "location": {"address1": "7065 Islington Avenue", "address2": "", "address3": "", "city": "Vaughan", "zip_code": "L4L 1V9", "country": "CA", "state": "ON", "display_address": ["7065 Islington Avenue", "Vaughan, ON L4L 1V9", "Canada"]}, "phone": "+19058511166", "display_phone": "+1 905-851-1166", "distance": 3590.089461381404}, {"id": "0oXATsxjB34yO0fyaj5RMQ", "alias": "coach-house-outdoor-wedding-chapel-mississauga", "name": "Coach House Weddings", "image_url": "https://s3-media3.fl.yelpcdn.com/bphoto/6Lve0P4tr40kPB0Ens5BcA/o.jpg", "is_closed": false, "url": "https://www.yelp.com/biz/coach-house-outdoor-wedding-chapel-mississauga?adjust_creative=KQ8EiN71xGv5H_kmPWQLiw&utm_campaign=yelp_api_v3&utm_medium=api_v3_business_search&utm_source=KQ8EiN71xGv5H_kmPWQLiw", "review_count": 4, "categories": [{"alias": "venues", "title": "Venues & Event Spaces"}, {"alias": "wedding_planning", "title": "Wedding Planning"}, {"alias": "photographers", "title": "Photographers"}], "rating": 5.0, "coordinates": {"latitude": 43.5813719287519, "longitude": -79.5834711651856}, "transactions": [], "location": {"address1": "1620 Cawthra Court", "address2": "", "address3": "", "city": "Mississauga", "zip_code": "L5G 4L2", "country": "CA", "state": "ON", "display_address": ["1620 Cawthra Court", "Mississauga, ON L5G 4L2", "Canada"]}, "phone": "+19059900555", "display_phone": "+1 905-990-0555", "distance": 22753.178339341935}, {"id": "QVEAPGKZ0OrmxrHHOAK_3w", "alias": "finicia-modern-lebanese-kitchen-vaughan", "name": "Finicia Modern Lebanese Kitchen", "image_url": "https://s3-media2.fl.yelpcdn.com/bphoto/zv8NpvgwTjWuJK0aCLN6ww/o.jpg", "is_closed": false, "url": "https://www.yelp.com/biz/finicia-modern-lebanese-kitchen-vaughan?adjust_creative=KQ8EiN71xGv5H_kmPWQLiw&utm_campaign=yelp_api_v3&utm_medium=api_v3_business_search&utm_source=KQ8EiN71xGv5H_kmPWQLiw", "review_count": 3, "categories": [{"alias": "lebanese", "title": "Lebanese"}, {"alias": "hookah_bars", "title": "Hookah Bars"}, {"alias": "venues", "title": "Venues & Event Spaces"}], "rating": 3.5, "coordinates": {"latitude": 43.7783085946025, "longitude": -79.6240835846525}, "transactions": [], "location": {"address1": "8000 Highway 27", "address2": "", "address3": null, "city": "Vaughan", "zip_code": "L4H 0A8", "country": "CA", "state": "ON", "display_address": ["8000 Highway 27", "Vaughan, ON L4H 0A8", "Canada"]}, "phone": "+19056259966", "display_phone": "+1 905-625-9966", "distance": 1237.359338435751}, {"id": "Jwbt-m75VXM_pZMpVJRMmA", "alias": "grand-empire-banquet-and-convention-centre-centre-brampton-2", "name": "Grand Empire Banquet & Convention Centre Centre", "image_url": "https://s3-media2.fl.yelpcdn.com/bphoto/MrvlIJxHBa3Gy7IoapAIbA/o.jpg", "is_closed": false, "url": "https://www.yelp.com/biz/grand-empire-banquet-and-convention-centre-centre-brampton-2?adjust_creative=KQ8EiN71xGv5H_kmPWQLiw&utm_campaign=yelp_api_v3&utm_medium=api_v3_business_search&utm_source=KQ8EiN71xGv5H_kmPWQLiw", "review_count": 10, "categories": [{"alias": "venues", "title": "Venues & Event Spaces"}], "rating": 3.0, "coordinates": {"latitude": 43.7726822, "longitude": -79.6592407}, "transactions": [], "location": {"address1": "100 Nexus Avenue", "address2": "", "address3": "", "city": "Brampton", "zip_code": "L6P 2K9", "country": "CA", "state": "ON", "display_address": ["100 Nexus Avenue", "Brampton, ON L6P 2K9", "Canada"]}, "phone": "+19057944441", "display_phone": "+1 905-794-4441", "distance": 3988.7845663769644}, {"id": "2tR9tzJd_D1QCaNUVj977A", "alias": "the-play-cube-woodbridge-2", "name": "The Play Cube", "image_url": "https://s3-media2.fl.yelpcdn.com/bphoto/NR9i8rA-aA281ptqbh0nkA/o.jpg", "is_closed": false, "url": "https://www.yelp.com/biz/the-play-cube-woodbridge-2?adjust_creative=KQ8EiN71xGv5H_kmPWQLiw&utm_campaign=yelp_api_v3&utm_medium=api_v3_business_search&utm_source=KQ8EiN71xGv5H_kmPWQLiw", "review_count": 3, "categories": [{"alias": "playgrounds", "title": "Playgrounds"}, {"alias": "venues", "title": "Venues & Event Spaces"}], "rating": 2.5, "coordinates": {"latitude": 43.7779540859517, "longitude": -79.624172296434}, "transactions": [], "location": {"address1": "8000 Highway 27", "address2": "Unit 8", "address3": null, "city": "Woodbridge", "zip_code": "L4H 0A8", "country": "CA", "state": "ON", "display_address": ["8000 Highway 27", "Unit 8", "Woodbridge, ON L4H 0A8", "Canada"]}, "phone": "+19058510110", "display_phone": "+1 905-851-0110", "distance": 1266.9663148737586}, {"id": "IRkTGseCN83g_BwDjHXaAA", "alias": "splitsville-woodbridge-woodbridge", "name": "Splitsville Woodbridge", "image_url": "https://s3-media1.fl.yelpcdn.com/bphoto/qXLfcD5mP2Ss2IQVRFypjg/o.jpg", "is_closed": false, "url": "https://www.yelp.com/biz/splitsville-woodbridge-woodbridge?adjust_creative=KQ8EiN71xGv5H_kmPWQLiw&utm_campaign=yelp_api_v3&utm_medium=api_v3_business_search&utm_source=KQ8EiN71xGv5H_kmPWQLiw", "review_count": 15, "categories": [{"alias": "bowling", "title": "Bowling"}, {"alias": "venues", "title": "Venues & Event Spaces"}], "rating": 3.0, "coordinates": {"latitude": 43.78411, "longitude": -79.56509}, "transactions": [], "location": {"address1": "191 Marycroft Avenue", "address2": "", "address3": "", "city": "Woodbridge", "zip_code": "L4L 5Y6", "country": "CA", "state": "ON", "display_address": ["191 Marycroft Avenue", "Woodbridge, ON L4L 5Y6", "Canada"]}, "phone": "+19058563110", "display_phone": "+1 905-856-3110", "distance": 3725.7412282233263}, {"id": "-Q_v5Go-c5-iuI1befLL8A", "alias": "tray-arts-toronto", "name": "Tray Arts", "image_url": "https://s3-media4.fl.yelpcdn.com/bphoto/xpAHQPaV1w6pU9jmIGEZEw/o.jpg", "is_closed": false, "url": "https://www.yelp.com/biz/tray-arts-toronto?adjust_creative=KQ8EiN71xGv5H_kmPWQLiw&utm_campaign=yelp_api_v3&utm_medium=api_v3_business_search&utm_source=KQ8EiN71xGv5H_kmPWQLiw", "review_count": 1, "categories": [{"alias": "venues", "title": "Venues & Event Spaces"}], "rating": 5.0, "coordinates": {"latitude": 43.76005, "longitude": -79.57035}, "transactions": [], "location": {"address1": "181 Millwick Drive", "address2": null, "address3": "", "city": "Toronto", "zip_code": "M9L 2X2", "country": "CA", "state": "ON", "display_address": ["181 Millwick Drive", "Toronto, ON M9L 2X2", "Canada"]}, "phone": "+16476873995", "display_phone": "+1 647-687-3995", "distance": 4325.862828221085}, {"id": "OUdg87kTMBcJysVNMyRDNw", "alias": "bernie-and-molina-mississauga-3", "name": "Bernie and Molina", "image_url": "https://s3-media4.fl.yelpcdn.com/bphoto/2KK20opVE40x90gfZCuNcA/o.jpg", "is_closed": false, "url": "https://www.yelp.com/biz/bernie-and-molina-mississauga-3?adjust_creative=KQ8EiN71xGv5H_kmPWQLiw&utm_campaign=yelp_api_v3&utm_medium=api_v3_business_search&utm_source=KQ8EiN71xGv5H_kmPWQLiw", "review_count": 2, "categories": [{"alias": "eventphotography", "title": "Event Photography"}, {"alias": "photoboothrentals", "title": "Photo Booth Rentals"}], "rating": 5.0, "coordinates": {"latitude": 43.5889865, "longitude": -79.6521243}, "transactions": [], "location": {"address1": "335 Rathburn Road W", "address2": "Unit 1805", "address3": "", "city": "Mississauga", "zip_code": "L5B 0C8", "country": "CA", "state": "ON", "display_address": ["335 Rathburn Road W", "Unit 1805", "Mississauga, ON L5B 0C8", "Canada"]}, "phone": "+14169513111", "display_phone": "+1 416-951-3111", "distance": 22033.234907676884}, {"id": "pax5e48Sg8DEMtUJhXIzpw", "alias": "stereoflavour-entertainment-toronto", "name": "StereoFlavour Entertainment", "image_url": "https://s3-media2.fl.yelpcdn.com/bphoto/cNgxDdCnI7l322TCxUgrZw/o.jpg", "is_closed": false, "url": "https://www.yelp.com/biz/stereoflavour-entertainment-toronto?adjust_creative=KQ8EiN71xGv5H_kmPWQLiw&utm_campaign=yelp_api_v3&utm_medium=api_v3_business_search&utm_source=KQ8EiN71xGv5H_kmPWQLiw", "review_count": 3, "categories": [{"alias": "musicians", "title": "Musicians"}, {"alias": "djs", "title": "DJs"}, {"alias": "jazzandblues", "title": "Jazz & Blues"}], "rating": 5.0, "coordinates": {"latitude": 43.657289, "longitude": -79.4874561}, "transactions": [], "location": {"address1": "347 Jane Street", "address2": null, "address3": "", "city": "Toronto", "zip_code": "M6S 3Z3", "country": "CA", "state": "ON", "display_address": ["347 Jane Street", "Toronto, ON M6S 3Z3", "Canada"]}, "phone": "+18337332263", "display_phone": "+1 833-733-2263", "distance": 17358.864232079653}, {"id": "cX_yVfFxOTr0_WwKQQuc5w", "alias": "3-owls-entertainment-richmond-hill", "name": "3 Owls Entertainment", "image_url": "https://s3-media2.fl.yelpcdn.com/bphoto/18rzzs2yIcRn2E5KgixD8g/o.jpg", "is_closed": false, "url": "https://www.yelp.com/biz/3-owls-entertainment-richmond-hill?adjust_creative=KQ8EiN71xGv5H_kmPWQLiw&utm_campaign=yelp_api_v3&utm_medium=api_v3_business_search&utm_source=KQ8EiN71xGv5H_kmPWQLiw", "review_count": 11, "categories": [{"alias": "djs", "title": "DJs"}], "rating": 5.0, "coordinates": {"latitude": 43.8435516357422, "longitude": -79.415657043457}, "transactions": [], "location": {"address1": null, "address2": null, "address3": "", "city": "Richmond Hill", "zip_code": "L4B 4K5", "country": "CA", "state": "ON", "display_address": ["Richmond Hill, ON L4B 4K5", "Canada"]}, "phone": "+16476251822", "display_phone": "+1 647-625-1822", "distance": 17030.485019373267}, {"id": "twsxUAMZm4YGtqW1eaAabg", "alias": "joyous-planet-vaughan-2", "name": "Joyous Planet", "image_url": "https://s3-media4.fl.yelpcdn.com/bphoto/ObLDepitSLwvy-bCMikeEQ/o.jpg", "is_closed": false, "url": "https://www.yelp.com/biz/joyous-planet-vaughan-2?adjust_creative=KQ8EiN71xGv5H_kmPWQLiw&utm_campaign=yelp_api_v3&utm_medium=api_v3_business_search&utm_source=KQ8EiN71xGv5H_kmPWQLiw", "review_count": 1, "categories": [{"alias": "indoor_playcenter", "title": "Indoor Playcentre"}], "rating": 5.0, "coordinates": {"latitude": 43.78356, "longitude": -79.56484}, "transactions": [], "location": {"address1": "171 Marycroft Avenue", "address2": "Unit 4", "address3": "", "city": "Vaughan", "zip_code": "L4L 5Y3", "country": "CA", "state": "ON", "display_address": ["171 Marycroft Avenue", "Unit 4", "Vaughan, ON L4L 5Y3", "Canada"]}, "phone": "+19058567529", "display_phone": "+1 905-856-7529", "distance": 3784.1672240796047}], "total": 52, "region": {"center": {"longitude": -79.61174011230469, "latitude": 43.784972643520774}}}